{"type":"FeatureCollection","features":[{"type":"Feature","geometry":{"type":"Point","coordinates":[-2.770694,42.824389]},"properties":{"name":"NATURGY","price":0.939,"openingHours":"L-D: 24H","address":"CALLE A-1 KM 342. POL. IND. SUBILLABIDE (SUVILLAVIDE BIDEA), 2 01230 NANCLARES DE LA OCA"}},{"type":"Feature","geometry":{"type":"Point","coordinates":[-2.703306,42.860083]},"properties":{"name":"EDP","price":0.9,"openingHours":"L-D: 24H","address":"CALLE VITORIALANDA, 12 01193 ABERASTURI"}},{"type":"Feature","geometry":{"type":"Point","coordinates":[-1.888083,39.029583]},"properties":{"name":"NATURGY ES GNV ALBACETE","price":0.939,"openingHours":"L-D: 24H","address":"CALLE C\/ AUTOVIA C\/V AVD. SEXTA, S\/N 02007 ALBACETE"}},{"type":"Feature","geometry":{"type":"Point","coordinates":[-0.852389,38.169806]},"properties":{"name":"NATURGY","price":0.939,"openingHours":"L-D: 24H","address":"CALLE ANTONIO MACHADO \/ FIDEL, POL. IND. LA GRANADINA, S\/N 03349 SAN ISIDRO"}},{"type":"Feature","geometry":{"type":"Point","coordinates":[-5.686806,43.517972]},"properties":{"name":"EDP","price":0.98,"openingHours":"L-D: 24H","address":"AVENIDA DE OVIEDO, 176 33211 GIJON"}},{"type":"Feature","geometry":{"type":"Point","coordinates":[-5.720417,43.389278]},"properties":{"name":"HAM","price":0.86,"openingHours":"L-D: 24H","address":"AVENIDA OVIEDO, SN 33180 NORE\u00d1A"}},{"type":"Feature","geometry":{"type":"Point","coordinates":[-6.361056,38.937861]},"properties":{"name":"HAM","price":0.86,"openingHours":"L-D: 06:00-22:00","address":"AUTOVIA A5 KM. 341 06800 MERIDA"}},{"type":"Feature","geometry":{"type":"Point","coordinates":[1.897944,41.514583]},"properties":{"name":"HAM","price":0.86,"openingHours":"L-D: 24H","address":"CALLE TREBALL, 1 08630 ABRERA"}},{"type":"Feature","geometry":{"type":"Point","coordinates":[1.897556,41.515306]},"properties":{"name":"GALP","price":0.86,"openingHours":"L-D: 24H","address":"CALLE SALVADOR SEGUI,1, 08630 ABRERA"}},{"type":"Feature","geometry":{"type":"Point","coordinates":[2.189806,41.383556]},"properties":{"name":"NATURGY","price":0.939,"openingHours":"L-D: 24H","address":"CALLE DOCTOR AIGUADER, 50 08003 BARCELONA"}},{"type":"Feature","geometry":{"type":"Point","coordinates":[2.134861,41.331861]},"properties":{"name":"NATURGY","price":0.939,"openingHours":"L-D: 24H","address":"CALLE B, ZONA FRANCA, 13 08004 BARCELONA"}},{"type":"Feature","geometry":{"type":"Point","coordinates":[2.142278,41.327972]},"properties":{"name":"HAM","price":0.86,"openingHours":"L-D: 24H","address":"CALLE CALLE Y PUERTO, S\/N 08004 BARCELONA"}},{"type":"Feature","geometry":{"type":"Point","coordinates":[2.20275,41.433444]},"properties":{"name":"NATURGY","price":0.939,"openingHours":"L-D: 24H","address":"CALLE FRA JUNIPER SERRA, 59-75 08030 BARCELONA"}},{"type":"Feature","geometry":{"type":"Point","coordinates":[2.082028,41.347944]},"properties":{"name":"HAM","price":0.86,"openingHours":"L-D: 06:00-22:00","address":"CALLE PROGRESO, 4 08940 CORNELLA DE LLOBREGAT"}},{"type":"Feature","geometry":{"type":"Point","coordinates":[2.112944,41.3585]},"properties":{"name":"GALP","price":0.86,"openingHours":"L-D: 24H","address":"Ctra. Del Mig, 36-38 Esq.C\/Miguel Romeu, 128-132 08903 HOSPITALET DE LLOBREGAT (L')"}},{"type":"Feature","geometry":{"type":"Point","coordinates":[2.124472,41.349222]},"properties":{"name":"NATURGY","price":0.939,"openingHours":"L-D: 24H","address":"CALLE BOTANICA, 114 08908 HOSPITALET DE LLOBREGAT (L')"}},{"type":"Feature","geometry":{"type":"Point","coordinates":[1.632,41.595833]},"properties":{"name":"HAM IGUALADA","price":0.86,"openingHours":"L-D: 24H","address":"AVENIDA EUROPA, 26 08700 IGUALADA"}},{"type":"Feature","geometry":{"type":"Point","coordinates":[2.431028,41.527028]},"properties":{"name":"NATURGY IBERIA, S.L.","price":0.939,"openingHours":"L-D: 24H","address":"CARRETERA CARRETERA DE BARCELONA (N-II) 50 KM. 645 08301 MATARO"}},{"type":"Feature","geometry":{"type":"Point","coordinates":[1.778111,41.435556]},"properties":{"name":"GALP","price":0.86,"openingHours":"L-D: 24H","address":"CALLE DE FRAN\u00c7A, 5 08770 SANT SADURNI D'ANOIA"}},{"type":"Feature","geometry":{"type":"Point","coordinates":[2.164111,41.53875]},"properties":{"name":"MARIN\u00c9","price":0.939,"openingHours":"L-D: 24H","address":"CALLE GUIFR\u00c9 EL PIL\u00d3S, 10 08130 SANTA PERPETUA DE MOGODA"}},{"type":"Feature","geometry":{"type":"Point","coordinates":[2.036139,41.318472]},"properties":{"name":"NATURGY","price":0.939,"openingHours":"L-D: 24H","address":"AVENIDA PROGR\u00c9S, 25-27 08440 VILADECANS"}},{"type":"Feature","geometry":{"type":"Point","coordinates":[-3.751139,41.916222]},"properties":{"name":"REPSOL","price":0.889,"openingHours":"L-D: 06:00-00:00","address":"CR A-1, 187,7 09349 FONTIOSO"}},{"type":"Feature","geometry":{"type":"Point","coordinates":[-6.023556,36.568944]},"properties":{"name":"REPSOL","price":0.895,"openingHours":"L-D: 24H","address":"CARRETERA A-381 KM. 11,500 11595 TORRECERA"}},{"type":"Feature","geometry":{"type":"Point","coordinates":[-0.0755,39.974083]},"properties":{"name":"MONFORT","price":0.83,"openingHours":"L-D: 24H","address":"CALLE DINAMARCA - ESQUINA C\/SABONER, S\/N 12006 CASTELLON DE LA PLANA"}},{"type":"Feature","geometry":{"type":"Point","coordinates":[-3.931194,38.975028]},"properties":{"name":"NATURGY ES CIUDAD REAL","price":0.939,"openingHours":"L-D: 24H","address":"CALLE VILLARRUBIA DE LOS OJOS, 11 13005 CIUDAD REAL"}},{"type":"Feature","geometry":{"type":"Point","coordinates":[-8.526528,42.917833]},"properties":{"name":"NATURGY - SANTIAGO COMPOSTELA","price":0.939,"openingHours":"L-D: 24H","address":"AVENIDA VIA LA CIERVA S\/N, S\/N 15890 SANTIAGO DE COMPOSTELA"}},{"type":"Feature","geometry":{"type":"Point","coordinates":[-1.902944,39.553778]},"properties":{"name":"NATURGY","price":0.939,"openingHours":"L-D: 24H","address":"CARRETERA ALBACETE, N-320 KM. 72 16200 MOTILLA DEL PALANCAR"}},{"type":"Feature","geometry":{"type":"Point","coordinates":[2.872,42.416778]},"properties":{"name":"HAM","price":0.86,"openingHours":"L-D: 24H","address":"CARRETERA N-II KM. 774 17700 LA JONQUERA"}},{"type":"Feature","geometry":{"type":"Point","coordinates":[2.940389,42.295722]},"properties":{"name":"REPSOL","price":0.859,"openingHours":"L-D: 24H","address":"CALLE KARPETAN, S\/N 17730 HOSTALETS"}},{"type":"Feature","geometry":{"type":"Point","coordinates":[-3.225778,40.595139]},"properties":{"name":"NATURGY","price":0.939,"openingHours":"L-D: 05:00-23:00","address":"CARRETERA A-2 KM 47,5 (SALIDA 48). CTRA. MADRID, KM47 KM. 47,5 19208 ALOVERA"}},{"type":"Feature","geometry":{"type":"Point","coordinates":[-3.185194,40.6555]},"properties":{"name":"NATURGY","price":0.949,"openingHours":"L-D: 24H","address":"CALLE GADALAJARA-JALISCO, 9 19004 GUADALAJARA"}},{"type":"Feature","geometry":{"type":"Point","coordinates":[-2.615972,40.972278]},"properties":{"name":"HAM TORREMOCHA","price":0.86,"openingHours":"L-D: 24H","address":"CARRETERA A2 KM. 117,4 19268 TORREMOCHA DEL CAMPO"}},{"type":"Feature","geometry":{"type":"Point","coordinates":[-2.216667,43.038889]},"properties":{"name":"AVIA","price":0.98,"openingHours":"L-D: 24H","address":"CARRETERA NACIONAL N-1 (IRUN-MADRID) KM. 417 20212 OLABERRIA"}},{"type":"Feature","geometry":{"type":"Point","coordinates":[-3.671972,38.193306]},"properties":{"name":"REPSOL","price":0.919,"openingHours":"L-D: 24H","address":"CARRETERA N4 KM. 280,5 23210 GUARROMAN"}},{"type":"Feature","geometry":{"type":"Point","coordinates":[-3.805444,40.342222]},"properties":{"name":"NATURGY","price":0.949,"openingHours":"L-D: 24H","address":"CALLE EBANISTAS, 2 28923 ALCORCON"}},{"type":"Feature","geometry":{"type":"Point","coordinates":[-3.763889,40.271917]},"properties":{"name":"NATURGY ES FUENLABRADA","price":0.939,"openingHours":"L-D: 24H","address":"AVENIDA LA CANTUE\u00d1A, 8 28947 FUENLABRADA"}},{"type":"Feature","geometry":{"type":"Point","coordinates":[-3.633056,40.48525]},"properties":{"name":"NATURGY","price":0.919,"openingHours":"L-D: 24H","address":"AVENIDA FRANCISCO PI Y MARGALL, 5 28050 MADRID"}},{"type":"Feature","geometry":{"type":"Point","coordinates":[-3.669944,40.513194]},"properties":{"name":"ALIARA ENERGIA","price":0.948,"openingHours":"L-D: 24H","address":"CALLE PORTOMARIN, 25 28050 MADRID"}},{"type":"Feature","geometry":{"type":"Point","coordinates":[-3.710556,40.562417]},"properties":{"name":"HAM TRES CANTOS","price":0.86,"openingHours":"L-D: 24H","address":"CARRETERA M-607 KM. 17,7 28049 MADRID"}},{"type":"Feature","geometry":{"type":"Point","coordinates":[-3.717944,40.336056]},"properties":{"name":"NATURGY","price":0.949,"openingHours":"L-D: 24H","address":"CALLE PI\u00d1UECAR, 53 28023 MADRID"}},{"type":"Feature","geometry":{"type":"Point","coordinates":[-3.695944,40.377889]},"properties":{"name":"ALIARA ENERGIA","price":0.948,"openingHours":"L-D: 24H","address":"AVENIDA CORDOBA, 49 28041 MADRID"}},{"type":"Feature","geometry":{"type":"Point","coordinates":[-3.804389,40.463583]},"properties":{"name":"NATURGY","price":0.949,"openingHours":"L-D: 24H","address":"CALLE RAFAEL BOTI, 5 28021 MADRID"}},{"type":"Feature","geometry":{"type":"Point","coordinates":[-3.782417,40.382806]},"properties":{"name":"ALIARA ENERGIA","price":0.948,"openingHours":"L-D: 24H","address":"CALLE FUENTE DE LIMA, 22 28024 MADRID"}},{"type":"Feature","geometry":{"type":"Point","coordinates":[-3.717444,40.373778]},"properties":{"name":"ALIARA ENERGIA","price":0.948,"openingHours":"L-D: 24H","address":"CALLE VIA DE LOS POBLADOS, 128 28044 MADRID"}},{"type":"Feature","geometry":{"type":"Point","coordinates":[-3.573111,40.44925]},"properties":{"name":"NATURGY","price":0.939,"openingHours":"L-D: 24H","address":"CALLE FUEMBELLIDA, 3 28022 MADRID"}},{"type":"Feature","geometry":{"type":"Point","coordinates":[-3.655667,40.363889]},"properties":{"name":"NATURGY","price":0.949,"openingHours":"L-D: 24H","address":"AVENIDA EJE CENTRAL, 7 28053 MADRID"}},{"type":"Feature","geometry":{"type":"Point","coordinates":[-3.588917,40.398222]},"properties":{"name":"NATURGY","price":0.939,"openingHours":"L-D: 24H","address":"CALLE RIVAS, 14 28052 MADRID"}},{"type":"Feature","geometry":{"type":"Point","coordinates":[-3.753639,40.240389]},"properties":{"name":"NATURGY","price":0.949,"openingHours":"L-D: 24H","address":"CARRETERA DE PARLA A PINTO M-408 KM. S\/N 28980 PARLA"}},{"type":"Feature","geometry":{"type":"Point","coordinates":[-3.501139,40.441278]},"properties":{"name":"MOLGAS","price":0.84,"openingHours":"L-D: 24H","address":"CALLE CERRAJEROS DE LOS, 10 28830 SAN FERNANDO DE HENARES"}},{"type":"Feature","geometry":{"type":"Point","coordinates":[-3.578833,40.608417]},"properties":{"name":"HAM","price":0.86,"openingHours":"L-D: 24H","address":"AUTOVIA NACIONAL I KM. 26,200 28700 SAN SEBASTIAN DE LOS REYES"}},{"type":"Feature","geometry":{"type":"Point","coordinates":[-0.966028,37.596417]},"properties":{"name":"NATURGY LAS CUMBRES CARTAGENA","price":0.939,"openingHours":"L-D: 24H","address":"AVENIDA AVENIDA PEDRO S\u00c1NCHEZ MECA, S\/N 30202 CARTAGENA"}},{"type":"Feature","geometry":{"type":"Point","coordinates":[-1.219583,38.087611]},"properties":{"name":"NATURGY ES MOLINA DE SEGURA","price":0.939,"openingHours":"L-D: 24H","address":"CALLE ALDEBARAN, 30 30500 MOLINA DE SEGURA"}},{"type":"Feature","geometry":{"type":"Point","coordinates":[-1.169667,37.962333]},"properties":{"name":"NATURGY","price":0.949,"openingHours":"L-D: 07:00-22:00","address":"CARRETERA SAN GIN\u00c9S A ERA ALTA, POL\u00cdGONO 176, PARCELA 192 KM. S\/N 30168 ERA ALTA"}},{"type":"Feature","geometry":{"type":"Point","coordinates":[-1.609583,42.835194]},"properties":{"name":"NATURGY","price":0.939,"openingHours":"L-D: 24H","address":"CARRETERA NA2517, ARRE-ORICAIN KM. 4 31610 VILLAVA O ATARRABIA"}},{"type":"Feature","geometry":{"type":"Point","coordinates":[-7.813833,42.289667]},"properties":{"name":"NATURGY","price":0.939,"openingHours":"L-D: 24H","address":"CALLE RICARDO MART\u00cdN ESPERANZA, 12 32911 SAN CIBRAO DAS VI\u00d1AS"}},{"type":"Feature","geometry":{"type":"Point","coordinates":[-5.654611,40.93725]},"properties":{"name":"NATURGY ES SALAMANCA-BECONSA","price":0.939,"openingHours":"L-D: 24H","address":"CALLE VERTICAL TERCERA, 4 - 6 POL. IND. EL MONTALVO III, 4 37188 CARBAJOSA DE LA SAGRADA"}},{"type":"Feature","geometry":{"type":"Point","coordinates":[-5.909917,37.376111]},"properties":{"name":"HAM SEVILLA","price":0.86,"openingHours":"L-D: 07:00-23:00","address":"CARRETERA A-8028 KM. 3 41500 ALCALA DE GUADAIRA"}},{"type":"Feature","geometry":{"type":"Point","coordinates":[-5.946889,37.386917]},"properties":{"name":"NATURGY","price":0.939,"openingHours":"L-D: 24H","address":"AVENIDA ANDALUCIA, 11 41007 SEVILLA"}},{"type":"Feature","geometry":{"type":"Point","coordinates":[1.221806,41.1385]},"properties":{"name":"HAM BIONET","price":0.86,"openingHours":"L-V: 06:00-22:00; S: 07:00-15:00","address":"CALLE SOFRE, 5 43006 TARRAGONA"}},{"type":"Feature","geometry":{"type":"Point","coordinates":[-3.645056,40.105139]},"properties":{"name":"REPSOL","price":0.919,"openingHours":"L-D: 06:00-22:00","address":"AUTOVIA A-4 KM. 36,5 45223 SESE\u00d1A"}},{"type":"Feature","geometry":{"type":"Point","coordinates":[-4.003278,39.862028]},"properties":{"name":"CEPSA","price":0.995,"openingHours":"L: 07:00-23:00","address":"PASEO DE LA ROSA, 156 45006 TOLEDO"}},{"type":"Feature","geometry":{"type":"Point","coordinates":[-3.960583,39.869028]},"properties":{"name":"NATURGY TOLEDO","price":0.939,"openingHours":"L-D: 24H","address":"CALLE RIO JARAMA, 51 45007 TOLEDO"}},{"type":"Feature","geometry":{"type":"Point","coordinates":[-0.54825,39.475861]},"properties":{"name":"NATURGY","price":0.939,"openingHours":"L-D: 24H","address":"CARRETERA DELS PEDRAPIQUERS KM. S\/N 46190 RIBA-ROJA DE TURIA"}},{"type":"Feature","geometry":{"type":"Point","coordinates":[-0.535583,39.47275]},"properties":{"name":"E.S. EL OLIVERAL A-3, S.L.","price":0.92,"openingHours":"L-D: 24H","address":"P.INDUSTRIAL EL OLIVERAL SUBPOLIGONO 2 (C-NIII km 341) 46190 RIBA-ROJA DE TURIA"}},{"type":"Feature","geometry":{"type":"Point","coordinates":[-0.409417,39.458028]},"properties":{"name":"NATURGY","price":0.939,"openingHours":"L-D: 24H","address":"CALLE GREMIS DELS, 10 46014 VALENCIA"}},{"type":"Feature","geometry":{"type":"Point","coordinates":[-3.07225,43.349972]},"properties":{"name":"HAM BILBAO","price":0.86,"openingHours":"L-D: 24H","address":"CALLE REFRADIGAS, 1 48001 BILBAO"}},{"type":"Feature","geometry":{"type":"Point","coordinates":[-0.689778,41.6045]},"properties":{"name":"HAM","price":0.86,"openingHours":"L-D: 24H","address":"POLIGONO EL SACO, S\/N 50172 ALFAJARIN"}},{"type":"Feature","geometry":{"type":"Point","coordinates":[-0.923278,41.634222]},"properties":{"name":"COOPERATIVA AUTO-TAXI","price":0.91,"openingHours":"L-D: 24H","address":"AVENIDA GOMEZ LAGUNA, 151 50012 ZARAGOZA"}},{"type":"Feature","geometry":{"type":"Point","coordinates":[-0.813194,41.666639]},"properties":{"name":"VIA GAS","price":0.899,"openingHours":"L-D: 24H","address":"AUTOVIA A-2 KM. 328 50016 ZARAGOZA"}}]}