{"type":"FeatureCollection","features":[{"type":"Feature","geometry":{"type":"Point","coordinates":[-2.703306,42.860083]},"properties":{"name":"EDP","price":0.9,"openingHours":"L-V: 09:00-14:00","address":"CALLE VITORIALANDA, 12 01193 ABERASTURI"}},{"type":"Feature","geometry":{"type":"Point","coordinates":[-5.686806,43.517972]},"properties":{"name":"EDP","price":0.98,"openingHours":"L-D: 24H","address":"AVENIDA DE OVIEDO, 176 33211 GIJON"}},{"type":"Feature","geometry":{"type":"Point","coordinates":[1.897556,41.515306]},"properties":{"name":"GALP","price":0.83,"openingHours":"L-D: 24H","address":"CALLE SALVADOR SEGUI,1, 08630 ABRERA"}},{"type":"Feature","geometry":{"type":"Point","coordinates":[2.142278,41.327972]},"properties":{"name":"HAM","price":0.83,"openingHours":"L-D: 24H","address":"CALLE CALLE Y PUERTO, S\/N 08004 BARCELONA"}},{"type":"Feature","geometry":{"type":"Point","coordinates":[2.082028,41.347944]},"properties":{"name":"HAM","price":0.83,"openingHours":"L-D: 06:00-22:00","address":"CALLE PROGRESO, 4 08940 CORNELLA DE LLOBREGAT"}},{"type":"Feature","geometry":{"type":"Point","coordinates":[2.112944,41.3585]},"properties":{"name":"GALP","price":0.83,"openingHours":"L-D: 24H","address":"Ctra. Del Mig, 36-38 Esq.C\/Miguel Romeu, 128-132 08903 HOSPITALET DE LLOBREGAT (L')"}},{"type":"Feature","geometry":{"type":"Point","coordinates":[1.632,41.595833]},"properties":{"name":"HAM IGUALADA","price":0.83,"openingHours":"L-D: 24H","address":"AVENIDA EUROPA, 26 08700 IGUALADA"}},{"type":"Feature","geometry":{"type":"Point","coordinates":[1.778111,41.435556]},"properties":{"name":"GALP","price":0.83,"openingHours":"L-D: 24H","address":"CALLE DE FRAN\u00c7A, 5 08770 SANT SADURNI D'ANOIA"}},{"type":"Feature","geometry":{"type":"Point","coordinates":[2.164139,41.538806]},"properties":{"name":"MARIN\u00c9","price":0.884,"openingHours":"L-D: 24H","address":"CALLE GUIFRE EL PILOS, S\/N 08130 SANTA PERPETUA DE MOGODA"}},{"type":"Feature","geometry":{"type":"Point","coordinates":[-3.751139,41.916222]},"properties":{"name":"REPSOL","price":0.899,"openingHours":"L-D: 24H","address":"CR A-1, 187,7 09349 FONTIOSO"}},{"type":"Feature","geometry":{"type":"Point","coordinates":[-6.023556,36.568944]},"properties":{"name":"REPSOL","price":0.899,"openingHours":"L-D: 24H","address":"CARRETERA A-381 KM. 11,500 11595 TORRECERA"}},{"type":"Feature","geometry":{"type":"Point","coordinates":[-0.0755,39.974083]},"properties":{"name":"MONFORT","price":0.83,"openingHours":"L-D: 24H","address":"CALLE DINAMARCA - ESQUINA C\/SABONER, S\/N 12006 CASTELLON DE LA PLANA"}},{"type":"Feature","geometry":{"type":"Point","coordinates":[2.872,42.416778]},"properties":{"name":"HAM","price":0.83,"openingHours":"L-D: 24H","address":"CARRETERA N-II KM. 774 17700 LA JONQUERA"}},{"type":"Feature","geometry":{"type":"Point","coordinates":[-2.615972,40.972278]},"properties":{"name":"HAM TORREMOCHA","price":0.83,"openingHours":"L-D: 24H","address":"CARRETERA A2 KM. 117,4 19268 TORREMOCHA DEL CAMPO"}},{"type":"Feature","geometry":{"type":"Point","coordinates":[-2.216667,43.038889]},"properties":{"name":"AVIA","price":0.899,"openingHours":"L-D: 24H","address":"CARRETERA NACIONAL N-1 (IRUN-MADRID) KM. 417 20212 OLABERRIA"}},{"type":"Feature","geometry":{"type":"Point","coordinates":[-3.671972,38.193306]},"properties":{"name":"REPSOL","price":0.919,"openingHours":"L-D: 24H","address":"CARRETERA N4 KM. 280,5 23210 GUARROMAN"}},{"type":"Feature","geometry":{"type":"Point","coordinates":[-3.669944,40.513194]},"properties":{"name":"ALIARA ENERGIA","price":0.948,"openingHours":"L-D: 24H","address":"CALLE PORTOMARIN, 25 28050 MADRID"}},{"type":"Feature","geometry":{"type":"Point","coordinates":[-3.710556,40.562417]},"properties":{"name":"HAM TRES CANTOS","price":0.83,"openingHours":"L-D: 24H","address":"CARRETERA M-607 KM. 17,7 28049 MADRID"}},{"type":"Feature","geometry":{"type":"Point","coordinates":[-3.695944,40.377889]},"properties":{"name":"ALIARA ENERGIA","price":0.948,"openingHours":"L-D: 24H","address":"AVENIDA CORDOBA, 49 28041 MADRID"}},{"type":"Feature","geometry":{"type":"Point","coordinates":[-3.782417,40.382806]},"properties":{"name":"ALIARA ENERGIA","price":0.948,"openingHours":"L-D: 24H","address":"CALLE FUENTE DE LIMA, 22 28024 MADRID"}},{"type":"Feature","geometry":{"type":"Point","coordinates":[-3.717444,40.373778]},"properties":{"name":"ALIARA ENERGIA","price":0.948,"openingHours":"L-D: 24H","address":"CALLE VIA DE LOS POBLADOS, 128 28044 MADRID"}},{"type":"Feature","geometry":{"type":"Point","coordinates":[-3.501139,40.441278]},"properties":{"name":"MOLGAS","price":0.86,"openingHours":"L-D: 24H","address":"CALLE CERRAJEROS DE LOS, 10 28830 SAN FERNANDO DE HENARES"}},{"type":"Feature","geometry":{"type":"Point","coordinates":[-3.578833,40.608417]},"properties":{"name":"HAM","price":0.83,"openingHours":"L-D: 24H","address":"AUTOVIA NACIONAL I KM. 26,200 28700 SAN SEBASTIAN DE LOS REYES"}},{"type":"Feature","geometry":{"type":"Point","coordinates":[-5.909917,37.376111]},"properties":{"name":"HAM SEVILLA","price":0.83,"openingHours":"L-D: 07:00-23:00","address":"CARRETERA A-8028 KM. 3 41500 ALCALA DE GUADAIRA"}},{"type":"Feature","geometry":{"type":"Point","coordinates":[1.221806,41.1385]},"properties":{"name":"HAM BIONET","price":0.83,"openingHours":"L-V: 06:00-22:00; S: 07:00-15:00","address":"CALLE SOFRE, 5 43006 TARRAGONA"}},{"type":"Feature","geometry":{"type":"Point","coordinates":[-3.645056,40.105139]},"properties":{"name":"REPSOL","price":0.919,"openingHours":"L-D: 06:00-22:00","address":"AUTOVIA A-4 KM. 36,5 45223 SESE\u00d1A"}},{"type":"Feature","geometry":{"type":"Point","coordinates":[-4.003278,39.862028]},"properties":{"name":"CEPSA","price":0.995,"openingHours":"L: 07:00-23:00","address":"PASEO DE LA ROSA, 156 45006 TOLEDO"}},{"type":"Feature","geometry":{"type":"Point","coordinates":[-0.409276,39.457837]},"properties":{"name":"TAXCO","price":0.926,"openingHours":"L-D: 24H","address":"CL DELS GREMITS, 10 (POLIG.VARA DE QUART) 46014 VALENCIA"}},{"type":"Feature","geometry":{"type":"Point","coordinates":[-3.07225,43.349972]},"properties":{"name":"HAM BILBAO","price":0.83,"openingHours":"L-D: 24H","address":"CALLE REFRADIGAS, 1 48001 BILBAO"}},{"type":"Feature","geometry":{"type":"Point","coordinates":[-0.923278,41.634222]},"properties":{"name":"COOPERATIVA AUTO-TAXI","price":0.92,"openingHours":"L-D: 24H","address":"AVENIDA GOMEZ LAGUNA, 151 50012 ZARAGOZA"}},{"type":"Feature","geometry":{"type":"Point","coordinates":[-0.813194,41.666639]},"properties":{"name":"VIA GAS","price":0.925,"openingHours":"L-D: 24H","address":"AUTOVIA A-2 KM. 328 50016 ZARAGOZA"}}]}