{"type":"FeatureCollection","features":[{"type":"Feature","geometry":{"type":"Point","coordinates":[-2.703306,42.860083]},"properties":{"name":"EDP","price":0.853,"openingHours":"L-D: 24H","address":"CALLE VITORIALANDA, 12 01193 ABERASTURI"}},{"type":"Feature","geometry":{"type":"Point","coordinates":[-5.686806,43.517972]},"properties":{"name":"EDP","price":0.95,"openingHours":"L-D: 24H","address":"AVENIDA DE OVIEDO, 176 33211 GIJON"}},{"type":"Feature","geometry":{"type":"Point","coordinates":[1.897556,41.515306]},"properties":{"name":"GALP","price":0.72,"openingHours":"L-D: 24H","address":"CALLE SALVADOR SEGUI,1, 08630 ABRERA"}},{"type":"Feature","geometry":{"type":"Point","coordinates":[2.082028,41.347944]},"properties":{"name":"HAM","price":0.72,"openingHours":"L-D: 06:00-22:00","address":"CALLE PROGRESO, 4 08940 CORNELLA DE LLOBREGAT"}},{"type":"Feature","geometry":{"type":"Point","coordinates":[2.112944,41.3585]},"properties":{"name":"GALP","price":0.72,"openingHours":"L-D: 24H","address":"Ctra. Del Mig, 36-38 Esq.C\/Miguel Romeu, 128-132 08903 HOSPITALET DE LLOBREGAT (L')"}},{"type":"Feature","geometry":{"type":"Point","coordinates":[1.632,41.595833]},"properties":{"name":"HAM IGUALADA","price":0.72,"openingHours":"L-D: 24H","address":"AVENIDA EUROPA, 26 08700 IGUALADA"}},{"type":"Feature","geometry":{"type":"Point","coordinates":[1.778111,41.435556]},"properties":{"name":"GALP","price":0.72,"openingHours":"L-D: 24H","address":"CALLE DE FRAN\u00c7A, 5 08770 SANT SADURNI D'ANOIA"}},{"type":"Feature","geometry":{"type":"Point","coordinates":[-3.751139,41.916222]},"properties":{"name":"REPSOL","price":0.939,"openingHours":"L-D: 24H","address":"CR A-1, 187,7 09349 FONTIOSO"}},{"type":"Feature","geometry":{"type":"Point","coordinates":[-0.0755,39.974083]},"properties":{"name":"MONFORT","price":0.79,"openingHours":"L-D: 24H","address":"CALLE DINAMARCA - ESQUINA C\/SABONER, S\/N 12006 CASTELLON DE LA PLANA"}},{"type":"Feature","geometry":{"type":"Point","coordinates":[2.872,42.416778]},"properties":{"name":"HAM","price":0.72,"openingHours":"L-D: 24H","address":"CARRETERA N-II KM. 774 17700 LA JONQUERA"}},{"type":"Feature","geometry":{"type":"Point","coordinates":[-2.615972,40.972278]},"properties":{"name":"HAM TORREMOCHA","price":0.72,"openingHours":"L-D: 24H","address":"CARRETERA A2 KM. 117,4 19268 TORREMOCHA DEL CAMPO"}},{"type":"Feature","geometry":{"type":"Point","coordinates":[-2.216667,43.038889]},"properties":{"name":"AVIA","price":0.85,"openingHours":"L-D: 24H","address":"CARRETERA NACIONAL N-1 (IRUN-MADRID) KM. 417 20212 OLABERRIA"}},{"type":"Feature","geometry":{"type":"Point","coordinates":[-3.671972,38.193306]},"properties":{"name":"REPSOL","price":0.939,"openingHours":"L-D: 24H","address":"CARRETERA N4 KM. 280,5 23210 GUARROMAN"}},{"type":"Feature","geometry":{"type":"Point","coordinates":[-3.717444,40.373778]},"properties":{"name":"ALIARA ENERGIA","price":0.957,"openingHours":"L-D: 24H","address":"CALLE VIA DE LOS POBLADOS, 128 28044 MADRID"}},{"type":"Feature","geometry":{"type":"Point","coordinates":[1.221806,41.1385]},"properties":{"name":"HAM BIONET","price":0.72,"openingHours":"L-V: 06:00-22:00; S: 07:00-15:00","address":"CALLE SOFRE, 5 43006 TARRAGONA"}},{"type":"Feature","geometry":{"type":"Point","coordinates":[-3.645056,40.105139]},"properties":{"name":"REPSOL","price":0.939,"openingHours":"L-D: 06:00-22:00","address":"AUTOVIA A-4 KM. 36,5 45223 SESE\u00d1A"}},{"type":"Feature","geometry":{"type":"Point","coordinates":[-0.409276,39.457837]},"properties":{"name":"TAXCO","price":0.937,"openingHours":"L-D: 24H","address":"CL DELS GREMITS, 10 (POLIG.VARA DE QUART) 46014 VALENCIA"}},{"type":"Feature","geometry":{"type":"Point","coordinates":[-3.07225,43.349972]},"properties":{"name":"HAM BILBAO","price":0.72,"openingHours":"L-D: 24H","address":"CALLE REFRADIGAS, 1 48001 BILBAO"}},{"type":"Feature","geometry":{"type":"Point","coordinates":[-0.923278,41.634222]},"properties":{"name":"COOPERATIVA AUTO-TAXI","price":0.82,"openingHours":"L-D: 24H","address":"AVENIDA GOMEZ LAGUNA, 151 50012 ZARAGOZA"}},{"type":"Feature","geometry":{"type":"Point","coordinates":[-0.813194,41.666639]},"properties":{"name":"VIA GAS","price":0.88,"openingHours":"L-D: 24H","address":"AUTOVIA A-2 KM. 328 50016 ZARAGOZA"}}]}